Lat,Lon,First,Surname,DOB,Age,Smoking,Pets,Sex,Status,Link
51.9004,-8.4683, Liam, Murphy, 1995-08-15,28,No,No, Male,TBM,
51.8217,-8.214, Emma, O'Sullivan, 1992-03-22,31,No,, Female,TBM,
51.9818,-8.6821, Noah, Kelly, 1990-12-09,33,Yes,, Male,TBM,
51.7456,-8.4134, Olivia, Walsh, 1989-06-18,34,Yes,, Female,Active,
51.774,-8.9392, Ethan, Ryan, 1997-09-05,26,No,, Male,FtAc,
51.8012,-8.2091, Ava, Byrne, 1994-07-30,29,No,, Female,Active,
51.9475,-8.3451, Isabella, O'Connor, 1998-02-14,25,Yes,, Female,TBM,
51.8275,-8.3069, James, Doyle, 1993-06-03,30,Yes,Yes, Male,Active,
51.9943,-8.5055, Sophia, McCarthy, 1988-04-25,35,No,, Female,Active,
51.9861,-8.6422, Liam, Gallagher, 1999-10-11,23,Yes,No, Male,Active,
51.7647,-8.2466, Mia, Kennedy, 1992-12-29,28,No,No, Female,TBM,
51.9033,-8.394, Benjamin, Clarke, 1987-03-08,34,Yes,, Male,Active,
51.7505,-8.6908, Charlotte, Brown, 1994-07-17,27,Yes,No, Female,TBM,
51.8327,-8.555, Samuel, Lynch, 1991-09-14,30,No,, Male,TBM,
51.9356,-8.5751, Grace, Hughes, 1993-01-02,29,Yes,No, Female,TBM,
51.8782,-8.3678, Henry, Collins, 1995-04-19,26,Yes,No, Male,Active,
51.9749,-8.4741, Amelia, Ward, 1996-11-30,25,No,No, Female,Active,
51.7254,-8.7546, Mason, Taylor, 1999-08-20,22,Yes,, Male,Active,
51.9343,-8.2506, Evelyn, White, 1994-05-07,27,Yes,, Female,FtAc,
51.89,-8.4404, Elijah, Martin, 1993-02-14,28,No,, Male,Active,
51.8311,-8.4323, Avery, Murphy, 1997-07-06,24,Yes,, Female,Active,
51.8167,-8.6098, Lily, Jones, 1991-10-31,30,Yes,No, Female,FtAc,
51.7215,-8.3511, Michael, Wilson, 1986-01-15,35,Yes,No, Male,Active,
51.7199,-8.1903, Matthew, Green, 1987-03-29,34,No,, Male,Active,
51.8196,-8.8507, Scarlett, Anderson, 1990-06-20,31,Yes,No, Female,TBM,
51.9787,-8.6832, Avery, Robinson, 1996-12-11,25,Yes,No, Female,TBM,
51.8706,-8.4675, Evelyn, Murphy, 1992-09-07,29,Yes,, Female,TBM,
51.9333,-8.2367, Daniel, Johnson, 1997-08-12,24,No,No, Male,TBM,
